{
  "stations": [
    {
      "name": "12th St. Oakland City Center",
      "abbr": "12TH",
      "latitude": 37.803768,
      "longitude": -122.271450,
      "description": "",
      "city": "Oakland",
      "county": "alameda"
    },
    {
      "name": "16th St. Mission",
      "abbr": "16TH",
      "latitude": 37.765062,
      "longitude": -122.419694,
      "description": "",
      "city": "San Francisco",
      "county": "sanfrancisco"
    },
    {
      "name": "19th St. Oakland",
      "abbr": "19TH",
      "latitude": 37.808350,
      "longitude": -122.268602,
      "description": "",
      "city": "Oakland",
      "county": "alameda"
    },
    {
      "name": "24th St. Mission",
      "abbr": "24TH",
      "latitude": 37.752470,
      "longitude": -122.418143,
      "description": "",
      "city": "San Francisco",
      "county": "sanfrancisco"
    },
    {
      "name": "Antioch",
      "abbr": "ANTC",
      "latitude": 37.995388,
      "longitude": -121.780420,
      "description": "",
      "city": "Antioch",
      "county": "Contra Costa"
    },
    {
      "name": "Ashby",
      "abbr": "ASHB",
      "latitude": 37.852803,
      "longitude": -122.270062,
      "description": "",
      "city": "Berkeley",
      "county": "alameda"
    },
    {
      "name": "Balboa Park",
      "abbr": "BALB",
      "latitude": 37.721585,
      "longitude": -122.447506,
      "description": "",
      "city": "San Francisco",
      "county": "sanfrancisco"
    },
    {
      "name": "Bay Fair",
      "abbr": "BAYF",
      "latitude": 37.696924,
      "longitude": -122.126514,
      "description": "",
      "city": "San Leandro",
      "county": "alameda"
    },
    {
      "name": "Berryessa/North San Jose",
      "abbr": "BERY",
      "latitude": 37.368473,
      "longitude": -121.874681,
      "description": "",
      "city": "San Jose",
      "county": "Santa Clara"
    },
    {
      "name": "Castro Valley",
      "abbr": "CAST",
      "latitude": 37.690746,
      "longitude": -122.075602,
      "description": "",
      "city": "Castro Valley",
      "county": "alameda"
    },
    {
      "name": "Civic Center/UN Plaza",
      "abbr": "CIVC",
      "latitude": 37.779732,
      "longitude": -122.414123,
      "description": "",
      "city": "San Francisco",
      "county": "sanfrancisco"
    },
    {
      "name": "Coliseum",
      "abbr": "COLS",
      "latitude": 37.753661,
      "longitude": -122.196869,
      "description": "",
      "city": "Oakland",
      "county": "alameda"
    },
    {
      "name": "Colma",
      "abbr": "COLM",
      "latitude": 37.684638,
      "longitude": -122.466233,
      "description": "",
      "city": "Colma",
      "county": "sanmateo"
    },
    {
      "name": "Concord",
      "abbr": "CONC",
      "latitude": 37.973737,
      "longitude": -122.029095,
      "description": "",
      "city": "Concord",
      "county": "contracosta"
    },
    {
      "name": "Daly City",
      "abbr": "DALY",
      "latitude": 37.706121,
      "longitude": -122.469081,
      "city": "Daly City",
      "county": "sanmateo"
    },
    {
      "name": "Downtown Berkeley",
      "abbr": "DBRK",
      "latitude": 37.870104,
      "longitude": -122.268133,
      "description": "",
      "city": "Berkeley",
      "county": "alameda"
    },
    {
      "name": "Dublin/Pleasanton",
      "abbr": "DUBL",
      "latitude": 37.701687,
      "longitude": -121.899179,
      "description": "",
      "city": "Pleasanton",
      "county": "alameda"
    },
    {
      "name": "El Cerrito del Norte",
      "abbr": "DELN",
      "latitude": 37.925086,
      "longitude": -122.316794,
      "description": "",
      "city": "El Cerrito",
      "county": "contracosta"
    },
    {
      "name": "El Cerrito Plaza",
      "abbr": "PLZA",
      "latitude": 37.902632,
      "longitude": -122.298904,
      "description": "",
      "city": "El Cerrito",
      "county": "contracosta"
    },
    {
      "name": "Embarcadero",
      "abbr": "EMBR",
      "latitude": 37.792874,
      "longitude": -122.397020,
      "description": "",
      "city": "San Francisco",
      "county": "sanfrancisco"
    },
    {
      "name": "Fremont",
      "abbr": "FRMT",
      "latitude": 37.557465,
      "longitude": -121.976608,
      "description": "",
      "city": "Fremont",
      "county": "alameda"
    },
    {
      "name": "Fruitvale",
      "abbr": "FTVL",
      "latitude": 37.774836,
      "longitude": -122.224175,
      "description": "",
      "city": "Oakland",
      "county": "alameda"
    },
    {
      "name": "Glen Park",
      "abbr": "GLEN",
      "latitude": 37.733064,
      "longitude": -122.433817,
      "description": "",
      "city": "San Francisco",
      "county": "sanfrancisco"
    },
    {
      "name": "Hayward",
      "abbr": "HAYW",
      "latitude": 37.669723,
      "longitude": -122.087018,
      "description": "",
      "city": "Hayward",
      "county": "alameda"
    },
    {
      "name": "Lafayette",
      "abbr": "LAFY",
      "latitude": 37.893176,
      "longitude": -122.124630,
      "description": "",
      "city": "Lafayette",
      "county": "contracosta"
    },
    {
      "name": "Lake Merritt",
      "abbr": "LAKE",
      "latitude": 37.797027,
      "longitude": -122.265180,
      "description": "",
      "city": "Oakland",
      "county": "alameda"
    },
    {
      "name": "MacArthur",
      "abbr": "MCAR",
      "latitude": 37.829065,
      "longitude": -122.267040,
      "description": "",
      "city": "Oakland",
      "county": "alameda"
    },
    {
      "name": "Millbrae",
      "abbr": "MLBR",
      "latitude": 37.600271,
      "longitude": -122.386702,
      "description": "",
      "city": "Millbrae",
      "county": "sanmateo"
    },
    {
      "name": "Milpitas",
      "abbr": "MLPT",
      "latitude": 37.410277,
      "longitude": -121.891081,
      "description": "",
      "city": "Milpitas",
      "county": "Santa Clara"
    },
    {
      "name": "Montgomery St.",
      "abbr": "MONT",
      "latitude": 37.789405,
      "longitude": -122.401066,
      "description": "",
      "city": "San Francisco",
      "county": "sanfrancisco"
    },
    {
      "name": "North Berkeley",
      "abbr": "NBRK",
      "latitude": 37.873967,
      "longitude": -122.283440,
      "description": "",
      "city": "Berkeley",
      "county": "alameda"
    },
    {
      "name": "North Concord/Martinez",
      "abbr": "NCON",
      "latitude": 38.003193,
      "longitude": -122.024653,
      "description": "",
      "city": "Concord",
      "county": "contracosta"
    },
    {
      "name": "Oakland International Airport",
      "abbr": "OAKL",
      "latitude": 37.713238,
      "longitude": -122.212191,
      "description": "",
      "city": "Oakland",
      "county": "alameda"
    },
    {
      "name": "Orinda",
      "abbr": "ORIN",
      "latitude": 37.878361,
      "longitude": -122.183791,
      "description": "",
      "city": "Orinda",
      "county": "contracosta"
    },
    {
      "name": "Pittsburg/Bay Point",
      "abbr": "PITT",
      "latitude": 38.018914,
      "longitude": -121.945154,
      "description": "",
      "city": "Pittsburg",
      "county": "contracosta"
    },
    {
      "name": "Pittsburg Center",
      "abbr": "PCTR",
      "latitude": 38.016941,
      "longitude": -121.889457,
      "description": "",
      "city": "Pittsburg",
      "county": "Contra Costa"
    },
    {
      "name": "Pleasant Hill/Contra Costa Centre",
      "abbr": "PHIL",
      "latitude": 37.928468,
      "longitude": -122.056012,
      "city": "Walnut Creek",
      "county": "contracosta"
    },
    {
      "name": "Powell St.",
      "abbr": "POWL",
      "latitude": 37.784471,
      "longitude": -122.407974,
      "description": "",
      "city": "San Francisco",
      "county": "sanfrancisco"
    },
    {
      "name": "Richmond",
      "abbr": "RICH",
      "latitude": 37.936853,
      "longitude": -122.353099,
      "description": "",
      "city": "Richmond",
      "county": "contracosta"
    },
    {
      "name": "Rockridge",
      "abbr": "ROCK",
      "latitude": 37.844702,
      "longitude": -122.251371,
      "description": "",
      "city": "Oakland",
      "county": "alameda"
    },
    {
      "name": "San Bruno",
      "abbr": "SBRN",
      "latitude": 37.637761,
      "longitude": -122.416287,
      "description": "",
      "city": "San Bruno",
      "county": "sanmateo"
    },
    {
      "name": "San Francisco International Airport",
      "abbr": "SFIA",
      "latitude": 37.615966,
      "longitude": -122.392409,
      "description": "",
      "city": "San Francisco Int'l Airport",
      "county": "sanmateo"
    },
    {
      "name": "San Leandro",
      "abbr": "SANL",
      "latitude": 37.721947,
      "longitude": -122.160844,
      "description": "",
      "city": "San Leandro",
      "county": "alameda"
    },
    {
      "name": "South Hayward",
      "abbr": "SHAY",
      "latitude": 37.634375,
      "longitude": -122.057189,
      "city": "Hayward",
      "county": "alameda"
    },
    {
      "name": "South San Francisco",
      "abbr": "SSAN",
      "latitude": 37.664245,
      "longitude": -122.443960,
      "description": "",
      "city": "South San Francisco",
      "county": "sanmateo"
    },
    {
      "name": "Union City",
      "abbr": "UCTY",
      "latitude": 37.590630,
      "longitude": -122.017388,
      "description": "",
      "city": "Union City",
      "county": "alameda"
    },
    {
      "name": "Walnut Creek",
      "abbr": "WCRK",
      "latitude": 37.905522,
      "longitude": -122.067527,
      "description": "",
      "city": "Walnut Creek",
      "county": "contracosta"
    },
    {
      "name": "Warm Springs/South Fremont",
      "abbr": "WARM",
      "latitude": 37.502171,
      "longitude": -121.939313,
      "description": "",
      "city": "Fremont",
      "county": "alameda"
    },
    {
      "name": "West Dublin/Pleasanton",
      "abbr": "WDUB",
      "latitude": 37.699756,
      "longitude": -121.928240,
      "description": "",
      "city": "Dublin",
      "county": "alameda"
    },
    {
      "name": "West Oakland",
      "abbr": "WOAK",
      "latitude": 37.804872,
      "longitude": -122.295140,
      "description": "",
      "city": "Oakland",
      "county": "alameda"
    }
  ]
}